{
  "type": "FeatureCollection",
  "features": [
    {
      "type": "Feature",
      "properties": {
        "OBJECTID": 1,
        "Name": "FACILITIES DEPT",
        "SchoolType": "Other",
        "House": 23889,
        "Street": "DEWDNEY TRUNK RD",
        "WebPage": "http://www.sd42.ca/",
        "SchoolName": "FACILITIES DEPT"
      },
      "geometry": {
        "type": "Point",
        "coordinates": [
          -122.5604910148295,
          49.221917574047644
        ]
      }
    },
    {
      "type": "Feature",
      "properties": {
        "OBJECTID": 2,
        "Name": "ALBION ELEM",
        "SchoolType": "Elementary",
        "House": 10031,
        "Street": "240 ST",
        "WebPage": "http://albion.sd42.ca/",
        "SchoolName": "ALBION ELEMENTARY SCHOOL"
      },
      "geometry": {
        "type": "Point",
        "coordinates": [
          -122.55816321351014,
          49.184756896931525
        ]
      }
    },
    {
      "type": "Feature",
      "properties": {
        "OBJECTID": 3,
        "Name": "ALEXANDER ROBINSON ELEM",
        "SchoolType": "Elementary",
        "House": 11849,
        "Street": "238B ST",
        "WebPage": "http://are.sd42.ca/",
        "SchoolName": "ALEXANDER ROBINSON ELEMENTARY SCHOOL"
      },
      "geometry": {
        "type": "Point",
        "coordinates": [
          -122.56165779138347,
          49.21735173115143
        ]
      }
    },
    {
      "type": "Feature",
      "properties": {
        "OBJECTID": 4,
        "Name": "BLUE MOUNTAIN ELEM",
        "SchoolType": "Elementary",
        "House": 12153,
        "Street": "248 ST",
        "WebPage": "http://www.sd42.ca/",
        "SchoolName": "BLUE MOUNTAIN ELEMENTARY SCHOOL"
      },
      "geometry": {
        "type": "Point",
        "coordinates": [
          -122.53580698622471,
          49.22341839489707
        ]
      }
    },
    {
      "type": "Feature",
      "properties": {
        "OBJECTID": 5,
        "Name": "ERIC LANGTON ELEM",
        "SchoolType": "Elementary",
        "House": 12138,
        "Street": "EDGE ST",
        "WebPage": "http://ericlangton.sd42.ca/",
        "SchoolName": "ERIC LANGTON ELEMENTARY SCHOOL"
      },
      "geometry": {
        "type": "Point",
        "coordinates": [
          -122.5969419255582,
          49.22326231396161
        ]
      }
    },
    {
      "type": "Feature",
      "properties": {
        "OBJECTID": 6,
        "Name": "FAIRVIEW ELEM",
        "SchoolType": "Elementary",
        "House": 12209,
        "Street": "206 ST",
        "WebPage": "http://www.sd42.ca/",
        "SchoolName": "FAIRVIEW ELEMENTARY SCHOOL"
      },
      "geometry": {
        "type": "Point",
        "coordinates": [
          -122.65089996017242,
          49.22426687297897
        ]
      }
    },
    {
      "type": "Feature",
      "properties": {
        "OBJECTID": 7,
        "Name": "GLENWOOD ELEM",
        "SchoolType": "Elementary",
        "House": 21410,
        "Street": "GLENWOOD AVE",
        "WebPage": "http://www.sd42.ca/",
        "SchoolName": "GLENWOOD ELEMENTARY SCHOOL"
      },
      "geometry": {
        "type": "Point",
        "coordinates": [
          -122.6276297033133,
          49.222006223427854
        ]
      }
    },
    {
      "type": "Feature",
      "properties": {
        "OBJECTID": 8,
        "Name": "GOLDEN EARS ELEM",
        "SchoolType": "Elementary",
        "House": 23124,
        "Street": "118 AVE",
        "WebPage": "http://goldenears.sd42.ca/Golden%20Ears%20Main/Golden%20Ears%20Elementary.html",
        "SchoolName": "GOLDEN EARS ELEMENTARY SCHOOL"
      },
      "geometry": {
        "type": "Point",
        "coordinates": [
          -122.58147371253287,
          49.2160591938419
        ]
      }
    },
    {
      "type": "Feature",
      "properties": {
        "OBJECTID": 9,
        "Name": "HAMMOND ELEM",
        "SchoolType": "Elementary",
        "House": 11520,
        "Street": "203 ST",
        "WebPage": "http://hammond.sd42.ca/",
        "SchoolName": "HAMMOND ELEMENTARY SCHOOL"
      },
      "geometry": {
        "type": "Point",
        "coordinates": [
          -122.65765796988252,
          49.21245868441194
        ]
      }
    },
    {
      "type": "Feature",
      "properties": {
        "OBJECTID": 10,
        "Name": "HARRY HOOGE ELEM",
        "SchoolType": "Elementary",
        "House": 12280,
        "Street": "230 ST",
        "WebPage": "http://harryhooge.sd42.ca/",
        "SchoolName": "HARRY HOOGE ELEMENTARY SCHOOL"
      },
      "geometry": {
        "type": "Point",
        "coordinates": [
          -122.58422838766069,
          49.22527428531852
        ]
      }
    },
    {
      "type": "Feature",
      "properties": {
        "OBJECTID": 11,
        "Name": "KANAKA CREEK ELEM",
        "SchoolType": "Elementary",
        "House": 11120,
        "Street": "234A ST",
        "WebPage": "http://kc.sd42.ca/home.html",
        "SchoolName": "KANAKA CREEK ELEMENTARY SCHOOL"
      },
      "geometry": {
        "type": "Point",
        "coordinates": [
          -122.57210250782072,
          49.20388295385043
        ]
      }
    },
    {
      "type": "Feature",
      "properties": {
        "OBJECTID": 12,
        "Name": "LAITY VIEW ELEM",
        "SchoolType": "Elementary",
        "House": 21023,
        "Street": "123 AVE",
        "WebPage": "http://www.sd42.ca/",
        "SchoolName": "LAITY VIEW ELEMENTARY SCHOOL"
      },
      "geometry": {
        "type": "Point",
        "coordinates": [
          -122.63763295851034,
          49.227185607329695
        ]
      }
    },
    {
      "type": "Feature",
      "properties": {
        "OBJECTID": 13,
        "Name": "MAPLE RIDGE ELEM",
        "SchoolType": "Elementary",
        "House": 20820,
        "Street": "RIVER RD",
        "WebPage": "http://mre.sd42.ca/",
        "SchoolName": "MAPLE RIDGE ELEMENTARY SCHOOL"
      },
      "geometry": {
        "type": "Point",
        "coordinates": [
          -122.64426066470743,
          49.21231159323936
        ]
      }
    },
    {
      "type": "Feature",
      "properties": {
        "OBJECTID": 14,
        "Name": "MOUNT CRESCENT ELEM",
        "SchoolType": "Elementary",
        "House": 21821,
        "Street": "122 AVE",
        "WebPage": "http://www.sd42.ca/",
        "SchoolName": "MOUNT CRESCENT ELEMENTARY SCHOOL"
      },
      "geometry": {
        "type": "Point",
        "coordinates": [
          -122.61657783325379,
          49.224878780152075
        ]
      }
    },
    {
      "type": "Feature",
      "properties": {
        "OBJECTID": 15,
        "Name": "RIDGEMEADOWS COLLEGE / RIVERSIDE CENTRE",
        "SchoolType": "College",
        "House": 20575,
        "Street": "THORNE AVE",
        "WebPage": "http://rmcollege.ca/",
        "SchoolName": "RIDGEMEADOWS COLLEGE / RIVERSIDE CENTRE"
      },
      "geometry": {
        "type": "Point",
        "coordinates": [
          -122.65296249137248,
          49.21531970161113
        ]
      }
    },
    {
      "type": "Feature",
      "properties": {
        "OBJECTID": 16,
        "Name": "WEBSTER'S CORNERS ELEM",
        "SchoolType": "Elementary",
        "House": 25554,
        "Street": "DEWDNEY TRUNK RD",
        "WebPage": "http://wc.sd42.ca/",
        "SchoolName": "WEBSTER'S CORNERS ELEMENTARY SCHOOL"
      },
      "geometry": {
        "type": "Point",
        "coordinates": [
          -122.51350992235457,
          49.21999964988263
        ]
      }
    },
    {
      "type": "Feature",
      "properties": {
        "OBJECTID": 17,
        "Name": "YENNADON ELEM",
        "SchoolType": "Elementary",
        "House": 23347,
        "Street": "128 AVE",
        "WebPage": "http://yennadon.sd42.ca/",
        "SchoolName": "YENNADON ELEMENTARY SCHOOL"
      },
      "geometry": {
        "type": "Point",
        "coordinates": [
          -122.57615970354276,
          49.23579816878842
        ]
      }
    },
    {
      "type": "Feature",
      "properties": {
        "OBJECTID": 18,
        "Name": "GARIBALDI SEC",
        "SchoolType": "Secondary",
        "House": 24789,
        "Street": "DEWDNEY TRUNK RD",
        "WebPage": "http://gss.sd42.ca/",
        "SchoolName": "GARIBALDI SECONDARY SCHOOL"
      },
      "geometry": {
        "type": "Point",
        "coordinates": [
          -122.53660388022061,
          49.22118241103326
        ]
      }
    },
    {
      "type": "Feature",
      "properties": {
        "OBJECTID": 19,
        "Name": "MAPLE RIDGE SENIOR SEC",
        "SchoolType": "Secondary",
        "House": 21911,
        "Street": "122 AVE",
        "WebPage": "http://mrss.sd42.ca/",
        "SchoolName": "MAPLE RIDGE SENIOR SECONDARY SCHOOL"
      },
      "geometry": {
        "type": "Point",
        "coordinates": [
          -122.61489463204458,
          49.22451106742064
        ]
      }
    },
    {
      "type": "Feature",
      "properties": {
        "OBJECTID": 20,
        "Name": "WESTVIEW SEC",
        "SchoolType": "Secondary",
        "House": 20905,
        "Street": "WICKLUND AVE",
        "WebPage": "http://wss.sd42.ca/",
        "SchoolName": "WESTVIEW SECONDARY SCHOOL"
      },
      "geometry": {
        "type": "Point",
        "coordinates": [
          -122.64230673236665,
          49.22435428861889
        ]
      }
    },
    {
      "type": "Feature",
      "properties": {
        "OBJECTID": 21,
        "Name": "SD #42  OFFICES",
        "SchoolType": "Other",
        "House": 22225,
        "Street": "BROWN AVE",
        "WebPage": "http://www.sd42.ca/",
        "SchoolName": "SD #42  OFFICES"
      },
      "geometry": {
        "type": "Point",
        "coordinates": [
          -122.60567599101937,
          49.2221614375777
        ]
      }
    },
    {
      "type": "Feature",
      "properties": {
        "OBJECTID": 22,
        "Name": "THOMAS HANEY SEC",
        "SchoolType": "Secondary",
        "House": 23000,
        "Street": "116 AVE",
        "WebPage": "http://www.thss.ca/",
        "SchoolName": "THOMAS HANEY SECONDARY SCHOOL"
      },
      "geometry": {
        "type": "Point",
        "coordinates": [
          -122.58228501282599,
          49.21181745252135
        ]
      }
    },
    {
      "type": "Feature",
      "properties": {
        "OBJECTID": 23,
        "Name": "ALOUETTE ELEM",
        "SchoolType": "Elementary",
        "House": 22155,
        "Street": "ISAAC CRES",
        "WebPage": "http://at.sd42.ca/",
        "SchoolName": "ALOUETTE ELEMENTARY SCHOOL"
      },
      "geometry": {
        "type": "Point",
        "coordinates": [
          -122.60812115439084,
          49.2297232123249
        ]
      }
    },
    {
      "type": "Feature",
      "properties": {
        "OBJECTID": 24,
        "Name": "WHONNOCK ELEM",
        "SchoolType": "Elementary",
        "House": 27471,
        "Street": "112 AVE",
        "WebPage": "http://whonnockschool.sd42.ca/",
        "SchoolName": "WHONNOCK ELEMENTARY SCHOOL"
      },
      "geometry": {
        "type": "Point",
        "coordinates": [
          -122.46050004203373,
          49.20620076579272
        ]
      }
    },
    {
      "type": "Feature",
      "properties": {
        "OBJECTID": 25,
        "Name": "MAPLE RIDGE CHRISTIAN SCHOOL",
        "SchoolType": "Private",
        "House": 12140,
        "Street": "204B ST",
        "WebPage": "http://www.mrcs.ca/",
        "SchoolName": "MAPLE RIDGE CHRISTIAN SCHOOL"
      },
      "geometry": {
        "type": "Point",
        "coordinates": [
          -122.65355899950981,
          49.22358547730036
        ]
      }
    },
    {
      "type": "Feature",
      "properties": {
        "OBJECTID": 26,
        "Name": "MAPLE RIDGE CHRISTIAN ACADEMY",
        "SchoolType": "Private",
        "House": 20450,
        "Street": "DEWDNEY TRUNK RD",
        "WebPage": "http://mrcs.ca/",
        "SchoolName": ""
      },
      "geometry": {
        "type": "Point",
        "coordinates": [
          -122.65382906171803,
          49.22093380649517
        ]
      }
    },
    {
      "type": "Feature",
      "properties": {
        "OBJECTID": 27,
        "Name": "MEADOWRIDGE",
        "SchoolType": "Private",
        "House": 12224,
        "Street": "240 ST",
        "WebPage": "http://www.meadowridge.bc.ca/",
        "SchoolName": "MEADOWRIDGE SCHOOL"
      },
      "geometry": {
        "type": "Point",
        "coordinates": [
          -122.55523986494059,
          49.224624335913916
        ]
      }
    },
    {
      "type": "Feature",
      "properties": {
        "OBJECTID": 28,
        "Name": "ST. PATRICK'S",
        "SchoolType": "Private",
        "House": 22589,
        "Street": "121 AVE",
        "WebPage": "http://www.stpatsschool.org/",
        "SchoolName": "ST. PATRICK'S SCHOOL"
      },
      "geometry": {
        "type": "Point",
        "coordinates": [
          -122.59628195319723,
          49.222695821926294
        ]
      }
    },
    {
      "type": "Feature",
      "properties": {
        "OBJECTID": 34,
        "Name": "SAMUEL ROBERTSON TECHNICAL SEC",
        "SchoolType": "Secondary",
        "House": 10445,
        "Street": "245 ST",
        "WebPage": "http://www.srtss.ca/",
        "SchoolName": "SAMUEL ROBERTSON TECHNICAL SECONDARY SCHOOL"
      },
      "geometry": {
        "type": "Point",
        "coordinates": [
          -122.5432314511877,
          49.192516532539216
        ]
      }
    },
    {
      "type": "Feature",
      "properties": {
        "OBJECTID": 35,
        "Name": "MAPLE RIDGE ALTERNATIVE ALOUETTE RIVER CAMPUS",
        "SchoolType": "Secondary",
        "House": 23121,
        "Street": "132 AVE",
        "WebPage": "http://www.sd42.ca/",
        "SchoolName": "MAPLE RIDGE ALTERNATIVE ALOUETTE RIVER CAMPUS"
      },
      "geometry": {
        "type": "Point",
        "coordinates": [
          -122.58173092172648,
          49.24341374707297
        ]
      }
    }
  ]
}